{"type":"FeatureCollection","features":[{"type":"Feature","id":"M_101","properties":{"label":"협잡물종합처리기 제어밸브","tag":"M-101 A~B","sheet":"DXF:M-013","in_bldg":false},"geometry":{"type":"Point","coordinates":[127.3921736,37.5109406]}},{"type":"Feature","id":"M_102","properties":{"label":"협잡물종합처리기","tag":"M-102 A,B","sheet":"DXF:M-013","in_bldg":true},"geometry":{"type":"Point","coordinates":[127.3922344,37.510936]}},{"type":"Feature","id":"M_104","properties":{"label":"협잡물및침사물 이송컨베이어(1)","tag":"M-104","sheet":"DXF:M-013","in_bldg":true},"geometry":{"type":"Point","coordinates":[127.3921516,37.5108953]}},{"type":"Feature","id":"M_105","properties":{"label":"협잡물및침사물 이송컨베이어(2)","tag":"M-105","sheet":"DXF:M-013","in_bldg":true},"geometry":{"type":"Point","coordinates":[127.3921354,37.5108752]}},{"type":"Feature","id":"M_106","properties":{"label":"유량조정조 펌프","tag":"M-106 A~C","sheet":"DXF:M-014","in_bldg":true},"geometry":{"type":"Point","coordinates":[127.3921833,37.5108303]}},{"type":"Feature","id":"M_107","properties":{"label":"유량조정조 교반기","tag":"M-107 A~D","sheet":"DXF:M-014","in_bldg":true},"geometry":{"type":"Point","coordinates":[127.3922662,37.5108903]}},{"type":"Feature","id":"M_108","properties":{"label":"유량조정조 유입수문","tag":"M-108 A,B","sheet":"DXF:M-013","in_bldg":true},"geometry":{"type":"Point","coordinates":[127.3921859,37.5107993]}},{"type":"Feature","id":"M_109","properties":{"label":"장비 반출입 호이스트","tag":"M-109","sheet":"DXF:M-012","in_bldg":true},"geometry":{"type":"Point","coordinates":[127.3921388,37.5107763]}},{"type":"Feature","id":"M_112","properties":{"label":"협잡물 이송 컨베이어(2)","tag":"M-112","sheet":"DXF:M-013","in_bldg":false},"geometry":{"type":"Point","coordinates":[127.3920657,37.5107975]}},{"type":"Feature","id":"M_113","properties":{"label":"협잡물 이송 컨베이어(3)","tag":"M-113","sheet":"DXF:M-013","in_bldg":false},"geometry":{"type":"Point","coordinates":[127.3920578,37.5107879]}},{"type":"Feature","id":"M_115","properties":{"label":"유지관리용 호이스트","tag":"M-115","sheet":"DXF:M-013","in_bldg":true},"geometry":{"type":"Point","coordinates":[127.3922262,37.510834]}},{"type":"Feature","id":"M_201","properties":{"label":"혐기조 액이송교반장치","tag":"M-201 A,B","sheet":"DXF:M-014","in_bldg":true},"geometry":{"type":"Point","coordinates":[127.3921492,37.5107008]}},{"type":"Feature","id":"M_202","properties":{"label":"혐기조 액이송제어밸브","tag":"M-202 A,B","sheet":"DXF:M-013","in_bldg":true},"geometry":{"type":"Point","coordinates":[127.3923391,37.5108867]}},{"type":"Feature","id":"M_203","properties":{"label":"공유조 액이송교반장치","tag":"M-203 A,B","sheet":"DXF:M-013","in_bldg":true},"geometry":{"type":"Point","coordinates":[127.3923187,37.5108379]}},{"type":"Feature","id":"M_204","properties":{"label":"막분리조 다목적교반장치","tag":"M-204 A~D","sheet":"DXF:M-014","in_bldg":true},"geometry":{"type":"Point","coordinates":[127.3924267,37.5108284]}},{"type":"Feature","id":"M_205","properties":{"label":"공유조 송풍기","tag":"M-205 A~C","sheet":"DXF:M-012","in_bldg":true},"geometry":{"type":"Point","coordinates":[127.3923893,37.5107437]}},{"type":"Feature","id":"M_206","properties":{"label":"공유조 산기장치","tag":"M-206","sheet":"DXF:M-014","in_bldg":true},"geometry":{"type":"Point","coordinates":[127.3923837,37.5108485]}},{"type":"Feature","id":"M_207","properties":{"label":"막분리조 송풍기","tag":"M-207 A~C","sheet":"DXF:M-012","in_bldg":true},"geometry":{"type":"Point","coordinates":[127.3923427,37.5107471]}},{"type":"Feature","id":"M_208","properties":{"label":"분리막","tag":"M-208","sheet":"DXF:M-014","in_bldg":true},"geometry":{"type":"Point","coordinates":[127.3922131,37.5107531]}},{"type":"Feature","id":"M_210","properties":{"label":"처리수 흡입펌프","tag":"M-210 A~D","sheet":"DXF:M-013","in_bldg":true},"geometry":{"type":"Point","coordinates":[127.3924431,37.5107363]}},{"type":"Feature","id":"M_211","properties":{"label":"잉여슬러지 인발펌프","tag":"M-211 A~D","sheet":"DXF:M-014","in_bldg":true},"geometry":{"type":"Point","coordinates":[127.3922438,37.5107874]}},{"type":"Feature","id":"M_214","properties":{"label":"NaOCl 원액저장","tag":"M-214","sheet":"DXF:M-013","in_bldg":true},"geometry":{"type":"Point","coordinates":[127.3923715,37.5108686]}},{"type":"Feature","id":"M_217","properties":{"label":"NaOH 저장탱크","tag":"M-217","sheet":"DXF:M-013","in_bldg":true},"geometry":{"type":"Point","coordinates":[127.3924111,37.5108468]}},{"type":"Feature","id":"M_219","properties":{"label":"바닥배수 펌프","tag":"M-219 A,B","sheet":"DXF:M-014","in_bldg":true},"geometry":{"type":"Point","coordinates":[127.3922357,37.5108162]}},{"type":"Feature","id":"M_220","properties":{"label":"세정수조 드레인 펌프","tag":"M-220 A,B","sheet":"DXF:M-014","in_bldg":true},"geometry":{"type":"Point","coordinates":[127.3922889,37.5107606]}},{"type":"Feature","id":"M_221","properties":{"label":"유지관리용 호이스트","tag":"M-221","sheet":"DXF:M-013","in_bldg":true},"geometry":{"type":"Point","coordinates":[127.3922984,37.5107621]}},{"type":"Feature","id":"M_222","properties":{"label":"송풍기용 호이스트","tag":"M-222","sheet":"DXF:M-012","in_bldg":true},"geometry":{"type":"Point","coordinates":[127.3923768,37.5107281]}},{"type":"Feature","id":"M_223","properties":{"label":"막유지관리용 호이스트","tag":"M-223","sheet":"DXF:M-013","in_bldg":true},"geometry":{"type":"Point","coordinates":[127.3922589,37.5107695]}},{"type":"Feature","id":"M_301","properties":{"label":"처리수펌프","tag":"M-301 A~C","sheet":"DXF:M-014","in_bldg":true},"geometry":{"type":"Point","coordinates":[127.3924626,37.5107589]}},{"type":"Feature","id":"M_303","properties":{"label":"유지관리용 호이스트","tag":"M-303","sheet":"DXF:M-013","in_bldg":true},"geometry":{"type":"Point","coordinates":[127.3924777,37.5108115]}},{"type":"Feature","id":"M_401","properties":{"label":"용수공급장치","tag":"M-401","sheet":"DXF:M-014","in_bldg":true},"geometry":{"type":"Point","coordinates":[127.3924271,37.5107071]}},{"type":"Feature","id":"M_502","properties":{"label":"슬러지공급 펌프","tag":"M-502 A~C","sheet":"DXF:M-014","in_bldg":true},"geometry":{"type":"Point","coordinates":[127.3924154,37.5106882]}},{"type":"Feature","id":"M_506","properties":{"label":"슬러지저류조 송풍기","tag":"M-506","sheet":"DXF:M-013","in_bldg":true},"geometry":{"type":"Point","coordinates":[127.3923518,37.5106229]}},{"type":"Feature","id":"M_507","properties":{"label":"폴리머 자동용해장치","tag":"M-507","sheet":"DXF:M-012","in_bldg":true},"geometry":{"type":"Point","coordinates":[127.3922944,37.5108124]}},{"type":"Feature","id":"M_601","properties":{"label":"탈취기","tag":"M-601","sheet":"DXF:M-012","in_bldg":true},"geometry":{"type":"Point","coordinates":[127.3923266,37.5106571]}},{"type":"Feature","id":"M_110","properties":{"label":"드럼스크린","tag":"M-110 A~C","sheet":"DXF:M-013","in_bldg":true},"geometry":{"type":"Point","coordinates":[127.3921179,37.5107779]}},{"type":"Feature","id":"M_111","properties":{"label":"협잡물 이송 컨베이어(1)","tag":"M-111","sheet":"DXF:M-013","in_bldg":false},"geometry":{"type":"Point","coordinates":[127.3920729,37.5108064]}},{"type":"Feature","id":"M_114","properties":{"label":"협잡물및침사물저장 콘테이너","tag":"M-114","sheet":"DXF:M-012","in_bldg":true},"geometry":{"type":"Point","coordinates":[127.3921846,37.5107103]}},{"type":"Feature","id":"M_215","properties":{"label":"NaOCl 원액이송펌프","tag":"M-215 A~C","sheet":"DXF:M-013","in_bldg":true},"geometry":{"type":"Point","coordinates":[127.3923447,37.5108197]}},{"type":"Feature","id":"M_216","properties":{"label":"NaOCl 희석탱크","tag":"M-216 A,B","sheet":"DXF:M-013","in_bldg":true},"geometry":{"type":"Point","coordinates":[127.3922494,37.5108478]}},{"type":"Feature","id":"M_218","properties":{"label":"NaOH 주입펌프","tag":"M-218 A~C","sheet":"DXF:M-013","in_bldg":true},"geometry":{"type":"Point","coordinates":[127.3923695,37.5108165]}},{"type":"Feature","id":"M_302","properties":{"label":"총인처리시설","tag":"M-302","sheet":"DXF:M-012","in_bldg":true},"geometry":{"type":"Point","coordinates":[127.3922601,37.5108268]}},{"type":"Feature","id":"M_503","properties":{"label":"케익이송 컨베이어","tag":"M-503","sheet":"DXF:M-012","in_bldg":true},"geometry":{"type":"Point","coordinates":[127.3922295,37.5107339]}},{"type":"Feature","id":"M_504","properties":{"label":"케익저장 콘테이너","tag":"M-504","sheet":"DXF:M-012","in_bldg":true},"geometry":{"type":"Point","coordinates":[127.3922165,37.5106839]}},{"type":"Feature","id":"M_505","properties":{"label":"슬러지저류조 산기장치","tag":"M-505 A,B","sheet":"DXF:M-014","in_bldg":true},"geometry":{"type":"Point","coordinates":[127.3923824,37.5106493]}},{"type":"Feature","id":"M_508","properties":{"label":"폴리머 공급펌프","tag":"M-508 A~C","sheet":"DXF:M-012","in_bldg":true},"geometry":{"type":"Point","coordinates":[127.3922641,37.5107884]}},{"type":"Feature","id":"M_601_1","properties":{"label":"탈취팬","tag":"M-601-1","sheet":"DXF:M-012","in_bldg":true},"geometry":{"type":"Point","coordinates":[127.3922623,37.5107182]}},{"type":"Feature","id":"M_501","properties":{"label":"슬러지 탈수기","tag":"M-501 A,B","sheet":"DXF:M-012","in_bldg":true},"geometry":{"type":"Point","coordinates":[127.3922507,37.5107457]}}]}